var comp = {
"type": "FeatureCollection",
"name": "competicoes_qgis",
"crs": { "type": "name", "properties": { "name": "urn:ogc:def:crs:OGC:1.3:CRS84" } },
"features": [
{ "type": "Feature", "properties": { "Id": 0, "Local": "Academia Militar - Lisboa", "mes": "Setembro", "dia": "22 e 23", "nome": "Concentração Espada e Florete", "armas": "Espada; Florete", "escalao": "Cadetes; Júniores; Séniores", "ig_url": "'<img class=\"comp-img\" src=imagens\/comp\/militar_lisboa.jpg>'" }, "geometry": { "type": "Point", "coordinates": [ -9.140032893190989, 38.7269433319521 ] } },
{ "type": "Feature", "properties": { "Id": 0, "Local": "Escola Secundáa Fernando Namora", "mes": "Outubro", "dia": "13", "nome": "Juvenil 1", "armas": "Espada", "escalao": "Iniciados; Cadetes", "ig_url": "'<img class=\"comp-img\" src=imagens\/comp\/fernando_namora.png>'" }, "geometry": { "type": "Point", "coordinates": [ -9.214392855234539, 38.763509478497951 ] } },
{ "type": "Feature", "properties": { "Id": 0, "Local": "Escola Básica do 2º e 3º Ciclo - Soares dos Reis", "mes": "Outubro", "dia": "20", "nome": "Júniores 1 e Séniores 1", "armas": "Florete", "escalao": "Júniores; Séniores", "ig_url": "'<img class=\"comp-img\" src=imagens\/comp\/soares_reis.jpg>'" }, "geometry": { "type": "Point", "coordinates": [ -8.599389071444747, 41.110885484310892 ] } },
{ "type": "Feature", "properties": { "Id": 0, "Local": "Escola Básica do 2º e 3º Ciclo - Soares dos Reis", "mes": "Outubro", "dia": "27", "nome": "Juvenil 1", "armas": "Sabre; Florete", "escalao": "Iniciados; Cadetes", "ig_url": "'<img class=\"comp-img\" src=imagens\/comp\/soares_reis.jpg>'" }, "geometry": { "type": "Point", "coordinates": [ -8.599389071444747, 41.110885484310892 ] } },
{ "type": "Feature", "properties": { "Id": 0, "Local": "Escola Secundária Fernando Namora", "mes": "Novembro", "dia": "3", "nome": "Júniores 1 e Séniores 1", "armas": "Espada; Sabre", "escalao": "Júniores; Séniores", "ig_url": "'<img class=\"comp-img\" src=imagens\/comp\/fernando_namora.png>'" }, "geometry": { "type": "Point", "coordinates": [ -9.214392855234539, 38.763509478497951 ] } },
{ "type": "Feature", "properties": { "Id": 0, "Local": "Ginásio Clube Português", "mes": "Novembro", "dia": "24 e 25", "nome": "Concentraçío Sabre", "armas": "Sabre", "escalao": "Cadetes; Júniores; Séniores", "ig_url": "'<img class=\"comp-img\" src=imagens\/comp\/gcp.jpg>'" }, "geometry": { "type": "Point", "coordinates": [ -9.156967064002044, 38.721342237638474 ] } },
{ "type": "Feature", "properties": { "Id": 0, "Local": "Academia Militar - Amadora", "mes": "Janeiro", "dia": "20", "nome": "Séniores", "armas": "Espada; Sabre; Florete", "escalao": "Séniores", "ig_url": "'<img class=\"comp-img\" src=imagens\/comp\/militar_amadora.jpg>'" }, "geometry": { "type": "Point", "coordinates": [ -9.236336917946696, 38.750223293002513 ] } },
{ "type": "Feature", "properties": { "Id": 0, "Local": "Centro Cultural de Viana do Castelo", "mes": "Janeiro", "dia": "26 e 27", "nome": "Juvenil 2", "armas": "Espada; Sabre; Florete", "escalao": "Iniciados; Cadetes", "ig_url": "'<img class=\"comp-img\" src=imagens\/comp\/centro_viana.jpg>'" }, "geometry": { "type": "Point", "coordinates": [ -8.828777401761746, 41.690234309117045 ] } },
{ "type": "Feature", "properties": { "Id": 0, "Local": "Escola Secundária da Amadora", "mes": "Fevereiro", "dia": "16 e 17", "nome": "Campeonato Nacional de Cadetes", "armas": "Espada; Sabre; Florete", "escalao": "Cadetes", "ig_url": "'<img class=\"comp-img\" src=imagens\/comp\/amadora.jfif>'" }, "geometry": { "type": "Point", "coordinates": [ -9.215137373226289, 38.753915722994982 ] } },
{ "type": "Feature", "properties": { "Id": 0, "Local": "Escola Secundária Almeida Garrett", "mes": "Fevereiro", "dia": "23", "nome": "Circuí­to Infantil 2", "armas": "Espada; Sabre; Florete", "escalao": "Infantis", "ig_url": "'<img class=\"comp-img\" src=imagens\/comp\/almeida_garrett.jpg>'" }, "geometry": { "type": "Point", "coordinates": [ -8.602236125017919, 41.12403219129493 ] } },
{ "type": "Feature", "properties": { "Id": 0, "Local": "Colégio Dom Diogo de Sousa", "mes": "Novembro", "dia": "10", "nome": "Circuí­to Infantil 1", "armas": "Espada; Sabre; Florete", "escalao": "Infantis", "ig_url": "'<img class=\"comp-img\" src=imagens\/comp\/diogo_sousa.jfif>'" }, "geometry": { "type": "Point", "coordinates": [ -8.416478465736812, 41.557481130660442 ] } },
{ "type": "Feature", "properties": { "Id": 0, "Local": "Instituto dos Pupilos do Exército", "mes": "Março", "dia": "16 e 17", "nome": "Juvenil 3 + Juniores 2", "armas": "Espada; Sabre", "escalao": "Iniciados; Cadetes; Júniores", "ig_url": "'<img class=\"comp-img\" src=imagens\/comp\/ipe.jpg>'" }, "geometry": { "type": "Point", "coordinates": [ -9.181520839659317, 38.74244407460256 ] } },
{ "type": "Feature", "properties": { "Id": 0, "Local": "Escola Básica do 2º e 3º Ciclo - Soares dos Reis", "mes": "Março", "dia": "23 e 24", "nome": "Juvenil 3 + Juniores 2", "armas": "Florete", "escalao": "Iniciados; Cadetes; Júniores", "ig_url": "'<img class=\"comp-img\" src=imagens\/comp\/soares_reis.jpg>'" }, "geometry": { "type": "Point", "coordinates": [ -8.599389071444747, 41.110885484310892 ] } },
{ "type": "Feature", "properties": { "Id": 0, "Local": "Fisica Torres Vedras", "mes": "Março", "dia": "30", "nome": "Juniores 3", "armas": "Espada; Sabre; Florete", "escalao": "Júniores", "ig_url": "'<img class=\"comp-img\" src=imagens\/comp\/torres_vedras.jfif>'" }, "geometry": { "type": "Point", "coordinates": [ -9.25570288415159, 39.087349286193771 ] } },
{ "type": "Feature", "properties": { "Id": 0, "Local": "Fisica Torres Vedras", "mes": "Março", "dia": "31", "nome": "Séniores 3", "armas": "Espada; Sabre; Florete", "escalao": "Séniores", "ig_url": "'<img class=\"comp-img\" src=imagens\/comp\/torres_vedras.jfif>'" }, "geometry": { "type": "Point", "coordinates": [ -9.25570288415159, 39.087349286193771 ] } },
{ "type": "Feature", "properties": { "Id": 0, "Local": "Centro de Alto Rendimento de Sangalhos Anadia", "mes": "Abril", "dia": "13 e 14", "nome": "Campeonato Nacional de Iniciados", "armas": "Espada; Sabre; Florete", "escalao": "Iniciados", "ig_url": "'<img class=\"comp-img\" src=imagens\/comp\/sangalhos.jpg>'" }, "geometry": { "type": "Point", "coordinates": [ -8.476026245165087, 40.479558462802956 ] } },
{ "type": "Feature", "properties": { "Id": 0, "Local": "Escola Secundária Fernando Namora", "mes": "Maio", "dia": "4 e 5", "nome": "Campeonato Nacional de Júniores", "armas": "Espada; Sabre; Florete", "escalao": "Júniores", "ig_url": "'<img class=\"comp-img\" src=imagens\/comp\/fernando_namora.png>'" }, "geometry": { "type": "Point", "coordinates": [ -9.214392855234539, 38.763509478497951 ] } },
{ "type": "Feature", "properties": { "Id": 0, "Local": "Escola Secundária Fernando Namora", "mes": "Maio", "dia": "25 e 26", "nome": "Campeonato Nacional Séniores de Espada", "armas": "Espada", "escalao": "Séniores", "ig_url": "'<img class=\"comp-img\" src=imagens\/comp\/fernando_namora.png>'" }, "geometry": { "type": "Point", "coordinates": [ -9.214392855234539, 38.763509478497951 ] } },
{ "type": "Feature", "properties": { "Id": 0, "Local": "Pavilhío Desportivo do antigo IMPE", "mes": "Maio", "dia": "18", "nome": "Campeonato Nacional Séniores de Sabre", "armas": "Sabre", "escalao": "Séniores", "ig_url": "'<img class=\"comp-img\" src=imagens\/comp\/impe.jpg>'" }, "geometry": { "type": "Point", "coordinates": [ -9.183915940473476, 38.748638604215351 ] } },
{ "type": "Feature", "properties": { "Id": 0, "Local": "Centro de Alto Rendimento de Sangalhos Anadia", "mes": "Junho", "dia": "8 e 9", "nome": "Campeonato Nacional Séniores de Florete", "armas": "Florete", "escalao": "Séniores", "ig_url": "'<img class=\"comp-img\" src=imagens\/comp\/sangalhos.jpg>'" }, "geometry": { "type": "Point", "coordinates": [ -8.476026245165087, 40.479558462802956 ] } },
{ "type": "Feature", "properties": { "Id": 0, "Local": "Centro de Alto Rendimento de Sangalhos Anadia", "mes": "Junho", "dia": "22 e 23", "nome": "Finais Nacionais - Florete", "armas": "Florete", "escalao": "Benjamins; Infantis; Iniciados; Cadetes; Júniores; Séniores", "ig_url": "'<img class=\"comp-img\" src=imagens\/comp\/sangalhos.jpg>'" }, "geometry": { "type": "Point", "coordinates": [ -8.476026245165087, 40.479558462802956 ] } },
{ "type": "Feature", "properties": { "Id": 0, "Local": "Fisica Torres Vedras", "mes": "Junho", "dia": "29 e 30", "nome": "Finais Nacionais - Espada e Sabre", "armas": "Espada; Sabre", "escalao": "Benjamins; Infantis; Iniciados; Cadetes; Júniores; Séniores", "ig_url": "'<img class=\"comp-img\" src=imagens\/comp\/torres_vedras.jfif>'" }, "geometry": { "type": "Point", "coordinates": [ -9.25570288415159, 39.087349286193771 ] } },
{ "type": "Feature", "properties": { "Id": 0, "Local": null, "mes": null, "dia": null, "nome": null, "armas": null, "escalao": null, "ig_url": null }, "geometry": null }
]
}
